{
  "0" : {
    "id" : 0,
    "managerId" : "mika",
    "name" : "Karibik",
    "type" : "PIZZA",
    "articalIds" : [ 0, 1, 3 ],
    "status" : "OPEN",
    "address" : {
      "street" : "Periceva",
      "number" : 12,
      "city" : "Novi Sad",
      "zipCode" : 21000,
      "latitude" : 0.0,
      "longitude" : 0.0
    },
    "link" : "12.png",
    "deleted" : true,
    "grade" : 5.0
  },
  "1" : {
    "id" : 1,
    "managerId" : "menadzer",
    "name" : "Caio",
    "type" : "PIZZA",
    "articalIds" : [ 0, 1, 2 ],
    "status" : "OPEN",
    "address" : {
      "street" : "Periceva",
      "number" : 12,
      "city" : "Novi Sad",
      "zipCode" : 21000,
      "latitude" : 0.0,
      "longitude" : 0.0
    },
    "link" : "12.png",
    "deleted" : true,
    "grade" : 3.0
  },
  "2" : {
    "id" : 2,
    "managerId" : "koja",
    "name" : "BozePomozi",
    "type" : "ITALIAN",
    "articalIds" : [ ],
    "status" : "OPEN",
    "address" : {
      "street" : "BozePomozi",
      "number" : 5,
      "city" : "BozePomozi",
      "zipCode" : 5555,
      "latitude" : 0.0,
      "longitude" : 0.0
    },
    "link" : "indij.png",
    "deleted" : false,
    "grade" : 4.2
  },
  "3" : {
    "id" : 3,
    "managerId" : "AnaMasic",
    "name" : "Sarajevski cevap",
    "type" : "BARBECUE",
    "articalIds" : [ ],
    "status" : "OPEN",
    "address" : {
      "street" : "Mise Dimitrijevica",
      "number" : 2,
      "city" : "Beograd",
      "zipCode" : 22000,
      "latitude" : 0.0,
      "longitude" : 0.0
    },
    "link" : "4_0.png",
    "deleted" : false,
    "grade" : -1.0
  },
  "4" : {
    "id" : 4,
    "managerId" : "aaaabbbb",
    "name" : "JEEEEEEJ",
    "type" : "ITALIAN",
    "articalIds" : [ ],
    "status" : "OPEN",
    "address" : {
      "street" : "fd",
      "number" : 4,
      "city" : "gdf",
      "zipCode" : 5,
      "latitude" : 0.0,
      "longitude" : 0.0
    },
    "link" : "kinezi.png",
    "deleted" : false,
    "grade" : -1.0
  },
  "5" : {
    "id" : 5,
    "managerId" : "QQQEEEE",
    "name" : "ssssssssssss",
    "type" : "ITALIAN",
    "articalIds" : [ ],
    "status" : "OPEN",
    "address" : {
      "street" : "DSDF",
      "number" : 4,
      "city" : "FSD",
      "zipCode" : 4,
      "latitude" : 0.0,
      "longitude" : 0.0
    },
    "link" : "novaind.png",
    "deleted" : false,
    "grade" : -1.0
  },
  "6" : {
    "id" : 6,
    "managerId" : "mmmhhhh",
    "name" : "fffffffffffffffffffffff",
    "type" : "ITALIAN",
    "articalIds" : [ ],
    "status" : "OPEN",
    "address" : {
      "street" : "rte",
      "number" : 5,
      "city" : "etr",
      "zipCode" : 5,
      "latitude" : 0.0,
      "longitude" : 0.0
    },
    "link" : "piletina_sa_svezom_paprikom_i_tikvicama.jpg",
    "deleted" : false,
    "grade" : -1.0
  },
  "9" : {
    "id" : 9,
    "managerId" : "mika",
    "name" : "rwe",
    "type" : "PIZZA",
    "articalIds" : [ ],
    "status" : "OPEN",
    "address" : {
      "street" : "tw",
      "number" : 4,
      "city" : "ert",
      "zipCode" : 5,
      "latitude" : 0.0,
      "longitude" : 0.0
    },
    "link" : "logoPizza.png",
    "deleted" : false,
    "grade" : 5.0
  }
}